[
    { "id": "1", "name": "School 1", "lat": 28.7041, "lng": 77.1025, "url": "school-details.html?school=school_id_1", "address": "New Delhi, India", "metadata": "Additional info about School 1" },
    { "id": "2", "name": "School 2", "lat": 19.0760, "lng": 72.8777, "url": "school-details.html?school=school_id_2", "address": "Mumbai, India", "metadata": "Additional info about School 2" },
    { "id": "3", "name": "School 3", "lat": 13.0827, "lng": 80.2707, "url": "school-details.html?school=school_id_3", "address": "Chennai, India", "metadata": "Additional info about School 3" },
    { "id": "4", "name": "School 4", "lat": 12.9716, "lng": 77.5946, "url": "school-details.html?school=school_id_4", "address": "Bengaluru, India", "metadata": "Additional info about School 4" },
    { "id": "5", "name": "School 5", "lat": 22.5726, "lng": 88.3639, "url": "school-details.html?school=school_id_5", "address": "Kolkata, India", "metadata": "Additional info about School 5" },
    { "id": "6", "name": "School 6", "lat": 17.3850, "lng": 78.4867, "url": "school-details.html?school=school_id_6", "address": "Hyderabad, India", "metadata": "Additional info about School 6" },
    { "id": "7", "name": "School 7", "lat": 18.5204, "lng": 73.8567, "url": "school-details.html?school=school_id_7", "address": "Pune, India", "metadata": "Additional info about School 7" },
    { "id": "8", "name": "School 8", "lat": 26.9124, "lng": 75.7873, "url": "school-details.html?school=school_id_8", "address": "Jaipur, India", "metadata": "Additional info about School 8" },
    { "id": "9", "name": "School 9", "lat": 23.2599, "lng": 77.4126, "url": "school-details.html?school=school_id_9", "address": "Bhopal, India", "metadata": "Additional info about School 9" },
    { "id": "10", "name": "School 10", "lat": 21.1702, "lng": 72.8311, "url": "school-details.html?school=school_id_10", "address": "Surat, India", "metadata": "Additional info about School 10" },
    { "id": "11", "name": "School 11", "lat": 30.7333, "lng": 76.7794, "url": "school-details.html?school=school_id_11", "address": "Chandigarh, India", "metadata": "Additional info about School 11" },
    { "id": "12", "name": "School 12", "lat": 25.3461, "lng": 82.9739, "url": "school-details.html?school=school_id_12", "address": "Varanasi, India", "metadata": "Additional info about School 12" },
    { "id": "13", "name": "School 13", "lat": 11.0168, "lng": 76.9558, "url": "school-details.html?school=school_id_13", "address": "Coimbatore, India", "metadata": "Additional info about School 13" },
    { "id": "14", "name": "School 14", "lat": 24.5854, "lng": 73.7125, "url": "school-details.html?school=school_id_14", "address": "Udaipur, India", "metadata": "Additional info about School 14" },
    { "id": "15", "name": "School 15", "lat": 32.0603, "lng": 77.2890, "url": "school-details.html?school=school_id_15", "address": "Shimla, India", "metadata": "Additional info about School 15" },
    { "id": "16", "name": "School 16", "lat": 26.8467, "lng": 80.9462, "url": "school-details.html?school=school_id_16", "address": "Lucknow, India", "metadata": "Additional info about School 16" },
    { "id": "17", "name": "School 17", "lat": 29.9457, "lng": 78.1642, "url": "school-details.html?school=school_id_17", "address": "Haridwar, India", "metadata": "Additional info about School 17" },
    { "id": "18", "name": "School 18", "lat": 20.2961, "lng": 85.8245, "url": "school-details.html?school=school_id_18", "address": "Bhubaneswar, India", "metadata": "Additional info about School 18" },
    { "id": "19", "name": "School 19", "lat": 15.3173, "lng": 75.7139, "url": "school-details.html?school=school_id_19", "address": "Hubli, India", "metadata": "Additional info about School 19" },
    { "id": "20", "name": "School 20", "lat": 28.6139, "lng": 77.2090, "url": "school-details.html?school=school_id_20", "address": "Delhi, India", "metadata": "Additional info about School 20" },
    { "id": "21", "name": "School 21", "lat": 21.1702, "lng": 72.8311, "url": "school-details.html?school=school_id_21", "address": "Gujarat, India", "metadata": "Additional info about School 21" },
    { "id": "22", "name": "School 22", "lat": 18.5204, "lng": 73.8567, "url": "school-details.html?school=school_id_22", "address": "Nagpur, India", "metadata": "Additional info about School 22" },
    { "id": "23", "name": "School 23", "lat": 19.0760, "lng": 72.8777, "url": "school-details.html?school=school_id_23", "address": "Thane, India", "metadata": "Additional info about School 23" },
    { "id": "24", "name": "School 24", "lat": 23.0225, "lng": 72.5714, "url": "school-details.html?school=school_id_24", "address": "Ahmedabad, India", "metadata": "Additional info about School 24" },
    { "id": "25", "name": "School 25", "lat": 27.1767, "lng": 78.0081, "url": "school-details.html?school=school_id_25", "address": "Agra, India", "metadata": "Additional info about School 25" },
    { "id": "26", "name": "School 26", "lat": 30.7333, "lng": 76.7794, "url": "school-details.html?school=school_id_26", "address": "Mohali, India", "metadata": "Additional info about School 26" },
    { "id": "27", "name": "School 27", "lat": 22.5726, "lng": 88.3639, "url": "school-details.html?school=school_id_27", "address": "Howrah, India", "metadata": "Additional info about School 27" },
    { "id": "28", "name": "School 28", "lat": 10.8505, "lng": 76.2711, "url": "school-details.html?school=school_id_28", "address": "Kochi, India", "metadata": "Additional info about School 28" },
    { "id": "29", "name": "School 29", "lat": 23.0216, "lng": 72.5797, "url": "school-details.html?school=school_id_29", "address": "Vadodara, India", "metadata": "Additional info about School 29" },
    { "id": "30", "name": "School 30","lat": 17.385,  "lng": 78.4867, "url":"school-details.html?school=school_id_101", "address":"Secunderabad, India","metadata":"Additional info about School 30"},
    { "id": "31", "name": "School 31", "lat": 20.5937, "lng": 78.9629, "url": "school-details.html?school=school_id_31", "address": "Nagapattinam, India", "metadata": "Additional info about School 31" },
    { "id": "32", "name": "School 32", "lat": 18.5204, "lng": 73.8567, "url": "school-details.html?school=school_id_32", "address": "Solapur, India", "metadata": "Additional info about School 32" },
    { "id": "33", "name": "School 33", "lat": 19.0760, "lng": 72.8777, "url": "school-details.html?school=school_id_33", "address": "Navi Mumbai, India", "metadata": "Additional info about School 33" },
    { "id": "34", "name": "School 34", "lat": 26.9124, "lng": 75.7873, "url": "school-details.html?school=school_id_34", "address": "Ajmer, India", "metadata": "Additional info about School 34" },
    { "id": "35", "name": "School 35", "lat": 28.6139, "lng": 77.2090, "url": "school-details.html?school=school_id_35", "address": "Noida, India", "metadata": "Additional info about School 35" },
    { "id": "36", "name": "School 36", "lat": 13.0827, "lng": 80.2707, "url": "school-details.html?school=school_id_36", "address": "Tiruchirappalli, India", "metadata": "Additional info about School 36" },
    { "id": "37", "name": "School 37", "lat": 22.5726, "lng": 88.3639, "url": "school-details.html?school=school_id_37", "address": "Durgapur, India", "metadata": "Additional info about School 37" },
    { "id": "38", "name": "School 38", "lat": 20.5937, "lng": 78.9629, "url": "school-details.html?school=school_id_38", "address": "Raipur, India", "metadata": "Additional info about School 38" },
    { "id": "39", "name": "School 39", "lat": 12.9716, "lng": 77.5946, "url": "school-details.html?school=school_id_39", "address": "Mysuru, India", "metadata": "Additional info about School 39" },
    { "id": "40", "name": "School 40", "lat": 25.2700, "lng": 82.9917, "url": "school-details.html?school=school_id_40", "address": "Allahabad, India", "metadata": "Additional info about School 40" },
    { "id": "41", "name": "School 41", "lat": 11.1271, "lng": 78.6569, "url": "school-details.html?school=school_id_41", "address": "Salem, India", "metadata": "Additional info about School 41" },
    { "id": "42", "name": "School 42", "lat": 27.1767, "lng": 78.0081, "url": "school-details.html?school=school_id_42", "address": "Mathura, India", "metadata": "Additional info about School 42" },
    { "id": "43", "name": "School 43", "lat": 30.7333, "lng": 76.7794, "url": "school-details.html?school=school_id_43", "address": "Patiala, India", "metadata": "Additional info about School 43" },
    { "id": "44", "name": "School 44", "lat": 21.1458, "lng": 79.0882, "url": "school-details.html?school=school_id_44", "address": "Nagpur, India", "metadata": "Additional info about School 44" },
    { "id": "45", "name": "School 45", "lat": 22.7196, "lng": 75.8577, "url": "school-details.html?school=school_id_45", "address": "Indore, India", "metadata": "Additional info about School 45" },
    { "id": "46", "name": "School 46", "lat": 12.2958, "lng": 76.6394, "url": "school-details.html?school=school_id_46", "address": "Mangalore, India", "metadata": "Additional info about School 46" },
    { "id": "47", "name": "School 47", "lat": 30.7333, "lng": 76.7794, "url": "school-details.html?school=school_id_47", "address": "Ludhiana, India", "metadata": "Additional info about School 47" },
    { "id": "48", "name": "School 48", "lat": 22.5726, "lng": 88.3639, "url": "school-details.html?school=school_id_48", "address": "Kolkata, India", "metadata": "Additional info about School 48" },
    { "id": "49", "name": "School 49", "lat": 20.5937, "lng": 78.9629, "url": "school-details.html?school=school_id_49", "address": "Jabalpur, India", "metadata": "Additional info about School 49" },
    { "id": "50", "name": "School 50", "lat": 12.9716, "lng": 77.5946, "url": "school-details.html?school=school_id_50", "address": "Tumkur, India", "metadata": "Additional info about School 50" },
    { "id": "51", "name": "School 51", "lat": 25.3176, "lng": 82.9739, "url": "school-details.html?school=school_id_51", "address": "Mirzapur, India", "metadata": "Additional info about School 51" },
    { "id": "52", "name": "School 52", "lat": 11.1271, "lng": 78.6569, "url": "school-details.html?school=school_id_52", "address": "Namakkal, India", "metadata": "Additional info about School 52" },
    { "id": "53", "name": "School 53", "lat": 22.3074, "lng": 73.1812, "url": "school-details.html?school=school_id_53", "address": "Gandhinagar, India", "metadata": "Additional info about School 53" },
    { "id": "54", "name": "School 54", "lat": 19.0760, "lng": 72.8777, "url": "school-details.html?school=school_id_54", "address": "Dadar, India", "metadata": "Additional info about School 54" },
    { "id": "55", "name": "School 55", "lat": 23.2599, "lng": 77.4126, "url": "school-details.html?school=school_id_55", "address": "Sagar, India", "metadata": "Additional info about School 55" },
    { "id": "56", "name": "School 56", "lat": 19.0760, "lng": 72.8777, "url": "school-details.html?school=school_id_56", "address": "Malad, India", "metadata": "Additional info about School 56" },
    { "id": "57", "name": "School 57", "lat": 26.9124, "lng": 75.7873, "url": "school-details.html?school=school_id_57", "address": "Bikaner, India", "metadata": "Additional info about School 57" },
    { "id": "58", "name": "School 58", "lat": 22.5726, "lng": 88.3639, "url": "school-details.html?school=school_id_58", "address": "Siliguri, India", "metadata": "Additional info about School 58" },
    { "id": "59", "name": "School 59", "lat": 13.0827, "lng": 80.2707, "url": "school-details.html?school=school_id_59", "address": "Kanchipuram, India", "metadata": "Additional info about School 59" },
    { "id": "60", "name": "School 60", "lat": 19.0760, "lng": 72.8777, "url": "school-details.html?school=school_id_60", "address": "Thane, India", "metadata": "Additional info about School 60" },
    { "id": "61", "name": "School 61", "lat": 29.9457, "lng": 78.1642, "url": "school-details.html?school=school_id_61", "address": "Roorkee, India", "metadata": "Additional info about School 61" },
    { "id": "62", "name": "School 62", "lat": 21.1702, "lng": 72.8311, "url": "school-details.html?school=school_id_62", "address": "Vadodara, India", "metadata": "Additional info about School 62" },
    { "id": "63", "name": "School 63", "lat": 20.5937, "lng": 78.9629, "url": "school-details.html?school=school_id_63", "address": "Bilaspur, India", "metadata": "Additional info about School 63" },
    { "id": "64", "name": "School 64", "lat": 11.1271, "lng": 78.6569, "url": "school-details.html?school=school_id_64", "address": "Karur, India", "metadata": "Additional info about School 64" },
    { "id": "65", "name": "School 65", "lat": 30.7333, "lng": 76.7794, "url": "school-details.html?school=school_id_65", "address": "Chandigarh, India", "metadata": "Additional info about School 65" },
    { "id": "66", "name": "School 66", "lat": 26.9124, "lng": 75.7873, "url": "school-details.html?school=school_id_66", "address": "Udaipur, India", "metadata": "Additional info about School 66" },
    { "id": "67", "name": "School 67", "lat": 23.3441, "lng": 85.3096, "url": "school-details.html?school=school_id_67", "address": "Ranchi, India", "metadata": "Additional info about School 67" },
    { "id": "68", "name": "School 68", "lat": 21.1458, "lng": 79.0882, "url": "school-details.html?school=school_id_68", "address": "Jabalpur, India", "metadata": "Additional info about School 68" },
    { "id": "69", "name": "School 69", "lat": 26.8468, "lng": 80.9462, "url": "school-details.html?school=school_id_69", "address": "Lucknow, India", "metadata": "Additional info about School 69" },
    { "id": "70", "name": "School 70", "lat": 12.9716, "lng": 77.5946, "url": "school-details.html?school=school_id_70", "address": "Chitradurga, India", "metadata": "Additional info about School 70" },
    { "id": "71", "name": "School 71", "lat": 20.5937, "lng": 78.9629, "url": "school-details.html?school=school_id_71", "address": "Bilaspur, India", "metadata": "Additional info about School 71" },
    { "id": "72", "name": "School 72", "lat": 22.5726, "lng": 88.3639, "url": "school-details.html?school=school_id_72", "address": "Asansol, India", "metadata": "Additional info about School 72" },
    { "id": "73", "name": "School 73", "lat": 20.5937, "lng": 78.9629, "url": "school-details.html?school=school_id_73", "address": "Korba, India", "metadata": "Additional info about School 73" },
    { "id": "74", "name": "School 74", "lat": 28.6139, "lng": 77.2090, "url": "school-details.html?school=school_id_74", "address": "Gurgaon, India", "metadata": "Additional info about School 74" },
    { "id": "75", "name": "School 75", "lat": 21.1702, "lng": 72.8311, "url": "school-details.html?school=school_id_75", "address": "Surat, India", "metadata": "Additional info about School 75" },
    { "id": "76", "name": "School 76", "lat": 12.9716, "lng": 77.5946, "url": "school-details.html?school=school_id_76", "address": "Hassan, India", "metadata": "Additional info about School 76" },
    { "id": "77", "name": "School 77", "lat": 21.1458, "lng": 79.0882, "url": "school-details.html?school=school_id_77", "address": "Wardha, India", "metadata": "Additional info about School 77" },
    { "id": "78", "name": "School 78", "lat": 18.5204, "lng": 73.8567, "url": "school-details.html?school=school_id_78", "address": "Satara, India", "metadata": "Additional info about School 78" },
    { "id": "79", "name": "School 79", "lat": 17.3850, "lng": 78.4867, "url": "school-details.html?school=school_id_79", "address": "Warangal, India", "metadata": "Additional info about School 79" },
    { "id": "80", "name": "School 80", "lat": 20.5937, "lng": 78.9629, "url": "school-details.html?school=school_id_80", "address": "Bilaspur, India", "metadata": "Additional info about School 80" },
    { "id": "81", "name": "School 81", "lat": 19.0760, "lng": 72.8777, "url": "school-details.html?school=school_id_81", "address": "Goregaon, India", "metadata": "Additional info about School 81" },
    { "id": "82", "name": "School 82", "lat": 21.1458, "lng": 79.0882, "url": "school-details.html?school=school_id_82", "address": "Bhandara, India", "metadata": "Additional info about School 82" },
    { "id": "83", "name": "School 83", "lat": 26.9124, "lng": 75.7873, "url": "school-details.html?school=school_id_83", "address": "Sikar, India", "metadata": "Additional info about School 83" },
    { "id": "84", "name": "School 84", "lat": 22.5726, "lng": 88.3639, "url": "school-details.html?school=school_id_84", "address": "Kolkata, India", "metadata": "Additional info about School 84" },
    { "id": "85", "name": "School 85", "lat": 18.5204, "lng": 73.8567, "url": "school-details.html?school=school_id_85", "address": "Kolhapur, India", "metadata": "Additional info about School 85" },
    { "id": "86", "name": "School 86", "lat": 19.0760, "lng": 72.8777, "url": "school-details.html?school=school_id_86", "address": "Kandivali, India", "metadata": "Additional info about School 86" },
    { "id": "87", "name": "School 87", "lat": 13.0827, "lng": 80.2707, "url": "school-details.html?school=school_id_87", "address": "Vellore, India", "metadata": "Additional info about School 87" },
    { "id": "88", "name": "School 88", "lat": 22.5726, "lng": 88.3639, "url": "school-details.html?school=school_id_88", "address": "Bankura, India", "metadata": "Additional info about School 88" },
    { "id": "89", "name": "School 89", "lat": 12.9716, "lng": 77.5946, "url": "school-details.html?school=school_id_89", "address": "Shimoga, India", "metadata": "Additional info about School 89" },
    { "id": "90", "name": "School 90", "lat": 19.0760, "lng": 72.8777, "url": "school-details.html?school=school_id_90", "address": "Borivali, India", "metadata": "Additional info about School 90" },
    { "id": "91", "name": "School 91", "lat": 20.5937, "lng": 78.9629, "url": "school-details.html?school=school_id_91", "address": "Raipur, India", "metadata": "Additional info about School 91" },
    { "id": "92", "name": "School 92", "lat": 22.5726, "lng": 88.3639, "url": "school-details.html?school=school_id_92", "address": "Durgapur, India", "metadata": "Additional info about School 92" },
    { "id": "93", "name": "School 93", "lat": 18.5204, "lng": 73.8567, "url": "school-details.html?school=school_id_93", "address": "Kolhapur, India", "metadata": "Additional info about School 93" },
    { "id": "94", "name": "School 94", "lat": 21.1458, "lng": 79.0882, "url": "school-details.html?school=school_id_94", "address": "Nagpur, India", "metadata": "Additional info about School 94" },
    { "id": "95", "name": "School 95", "lat": 20.5937, "lng": 78.9629, "url": "school-details.html?school=school_id_95", "address": "Raipur, India", "metadata": "Additional info about School 95" },
    { "id": "96", "name": "School 96", "lat": 26.9124, "lng": 75.7873, "url": "school-details.html?school=school_id_96", "address": "Udaipur, India", "metadata": "Additional info about School 96" },
    { "id": "97", "name": "School 97", "lat": 13.0827, "lng": 80.2707, "url": "school-details.html?school=school_id_97", "address": "Vellore, India", "metadata": "Additional info about School 97" },
    { "id": "98", "name": "School 98", "lat": 22.5726, "lng": 88.3639, "url": "school-details.html?school=school_id_98", "address": "Bankura, India", "metadata": "Additional info about School 98" },
    { "id": "99", "name": "School 99", "lat": 13.0827, "lng": 80.2707, "url": "school-details.html?school=school_id_99", "address": "Kanchipuram, India", "metadata": "Additional info about School 99" },
    { "id": "100", "name": "School 100", "lat": 21.1458, "lng": 79.0882, "url": "school-details.html?school=school_id_100", "address": "Bhandara, India", "metadata": "Additional info about School 100" }
  ]